{
  "type": "FeatureCollection",
  "features": [{
    "type": "Feature",
    "properties": {
      "Name": "CLSC de Benny Farm",
      "Address": "6484, avenue de Monkland",
      "City": "Montréal",
      "Phone": "+15144847878"
    },
    "geometry": {
      "type": "Point",
      "coordinates": [-73.631785, 45.465552]
    }
  }, {
    "type": "Feature",
    "properties": {
      "Name": "CLSC René-Cassin",
      "Address": "5800, boulevard Cavendish",
      "City": "Côte Saint-Luc",
      "Phone": "+15144847878"
    },
    "geometry": {
      "type": "Point",
      "coordinates": [-73.661622, 45.475921]
    }
  }, {
    "type": "Feature",
    "properties": {
      "Name": "CLSC de Dorval-Lachine",
      "Address": "1900, rue Notre-Dame",
      "City": "Lachine",
      "Phone": "+15146390650"
    },
    "geometry": {
      "type": "Point",
      "coordinates": [-73.682399, 45.43507]
    }
  }, {
    "type": "Feature",
    "properties": {
      "Name": "CLSC de LaSalle",
      "Address": "8550, boulevard Newman",
      "City": "LaSalle",
      "Phone": "+15143642572"
    },
    "geometry": {
      "type": "Point",
      "coordinates": [-73.6318, 45.431459]
    }
  }, {
    "type": "Feature",
    "properties": {
      "Name": "CLSC de Hochelaga-Maisonneuve",
      "Address": "4201, rue Ontario Est",
      "City": "Montréal",
      "Phone": "+15142532181"
    },
    "geometry": {
      "type": "Point",
      "coordinates": [-73.540741, 45.55125]
    }
  }, {
    "type": "Feature",
    "properties": {
      "Name": "CLSC de Rosemont",
      "Address": "2909, rue Rachel Est",
      "City": "Montréal",
      "Phone": "+15145243541"
    },
    "geometry": {
      "type": "Point",
      "coordinates": [-73.561638, 45.540718]
    }
  }, {
    "type": "Feature",
    "properties": {
      "Name": "CLSC Olivier-Guimond",
      "Address": "5810, Sherbrooke Est",
      "City": "Montréal",
      "Phone": "+15142552365"
    },
    "geometry": {
      "type": "Point",
      "coordinates": [-73.54784, 45.574842]
    }
  }, {
    "type": "Feature",
    "properties": {
      "Name": "CLSC de Côte-des-Neiges",
      "Address": "1271, avenue Van Horne",
      "City": "Outremont",
      "Phone": "+15147318531"
    },
    "geometry": {
      "type": "Point",
      "coordinates": [-73.613881, 45.521788]
    }
  }, {
    "type": "Feature",
    "properties": {
      "Name": "CLSC de Saint-Léonard",
      "Address": "5540, rue Jarry Est",
      "City": "Saint-Léonard",
      "Phone": "+15147223000"
    },
    "geometry": {
      "type": "Point",
      "coordinates": [-73.589997, 45.585579]
    }
  }, {
    "type": "Feature",
    "properties": {
      "Name": "CLSC de Saint-Michel",
      "Address": "3355, rue Jarry Est",
      "City": "Montréal",
      "Phone": "+15147223000"
    },
    "geometry": {
      "type": "Point",
      "coordinates": [-73.608323, 45.565317]
    }
  }, {
    "type": "Feature",
    "properties": {
      "Name": "CLSC d'Ahuntsic",
      "Address": "1165, boulevard Henri-Bourassa Est",
      "City": "Montréal",
      "Phone": "+15143842000"
    },
    "geometry": {
      "type": "Point",
      "coordinates": [-73.665597, 45.560877]
    }
  }, {
    "type": "Feature",
    "properties": {
      "Name": "CLSC de Bordeaux-Cartierville",
      "Address": "11822 avenue du Bois-de-Boulogne",
      "City": "Montréal",
      "Phone": "+15143312572"
    },
    "geometry": {
      "type": "Point",
      "coordinates": [-73.68891, 45.54099]
    }
  }, {
    "type": "Feature",
    "properties": {
      "Name": "CLSC de La Petite-Patrie",
      "Address": "6520, rue de Saint-Vallier",
      "City": "Montréal",
      "Phone": "+15142734508"
    },
    "geometry": {
      "type": "Point",
      "coordinates": [-73.605761, 45.535282]
    }
  }, {
    "type": "Feature",
    "properties": {
      "Name": "CLSC de Montréal-Nord",
      "Address": "11441, boulevard Lacordaire",
      "City": "Montréal",
      "Phone": "+15143842000"
    },
    "geometry": {
      "type": "Point",
      "coordinates": [-73.620424, 45.607363]
    }
  }, {
    "type": "Feature",
    "properties": {
      "Name": "CLSC de Saint-Laurent",
      "Address": "1055, avenue Sainte-Croix",
      "City": "Saint-Laurent",
      "Phone": "+15147486381"
    },
    "geometry": {
      "type": "Point",
      "coordinates": [-73.680682, 45.516821]
    }
  }, {
    "type": "Feature",
    "properties": {
      "Name": "CLSC de Villeray",
      "Address": "1425, rue Jarry Est",
      "City": "Montréal",
      "Phone": "+15143764141"
    },
    "geometry": {
      "type": "Point",
      "coordinates": [-73.621077, 45.551072]
    }
  }, {
    "type": "Feature",
    "properties": {
      "Name": "CLSC de Côte-des-Neiges",
      "Address": "5700, chemin de la Côte-des-Neiges",
      "City": "Montréal",
      "Phone": "+15147318531"
    },
    "geometry": {
      "type": "Point",
      "coordinates": [-73.627395, 45.498508]
    }
  }, {
    "type": "Feature",
    "properties": {
      "Name": "CLSC de Parc-Extension",
      "Address": "7085, rue Hutchison",
      "City": "Montréal",
      "Phone": "+15142739591"
    },
    "geometry": {
      "type": "Point",
      "coordinates": [-73.62245, 45.529761]
    }
  }, {
    "type": "Feature",
    "properties": {
      "Name": "CLSC Métro",
      "Address": "1801, boulevard de Maisonneuve Ouest",
      "City": "Montréal",
      "Phone": "+15149340354"
    },
    "geometry": {
      "type": "Point",
      "coordinates": [-73.581194, 45.494135]
    }
  }, {
    "type": "Feature",
    "properties": {
      "Name": "CLSC de Mercier-Est–Anjou",
      "Address": "9503, rue Sherbrooke Est",
      "City": "Montréal",
      "Phone": "+1 51 35‑2572"
    },
    "geometry": {
      "type": "Point",
      "coordinates": [-73.526467, 45.61154]
    }
  }, {
    "type": "Feature",
    "properties": {
      "Name": "CLSC de Pointe-aux-Trembles–Montréal-Est",
      "Address": "13926, rue Notre-Dame Est",
      "City": "Montréal",
      "Phone": "+15146424050"
    },
    "geometry": {
      "type": "Point",
      "coordinates": [-73.494257, 45.666407]
    }
  }, {
    "type": "Feature",
    "properties": {
      "Name": "CLSC de Rivière-des-Prairies",
      "Address": "8655, boulevard Perras",
      "City": "Montréal",
      "Phone": "+15144944924"
    },
    "geometry": {
      "type": "Point",
      "coordinates": [-73.585999, 45.644327]
    }
  }, {
    "type": "Feature",
    "properties": {
      "Name": "CLSC de Saint-Henri",
      "Address": "3833, rue Notre-Dame Ouest",
      "City": "Montréal",
      "Phone": "+15149337541"
    },
    "geometry": {
      "type": "Point",
      "coordinates": [-73.583352, 45.47846]
    }
  }, {
    "type": "Feature",
    "properties": {
      "Name": "CLSC de Verdun",
      "Address": "400, rue de l'Église",
      "City": "Montréal",
      "Phone": "+15147660546"
    },
    "geometry": {
      "type": "Point",
      "coordinates": [-73.56919, 45.462749]
    }
  }, {
    "type": "Feature",
    "properties": {
      "Name": "CLSC de Ville-Émard-Côte-Saint-Paul",
      "Address": "6161, rue Laurendeau",
      "City": "Montréal",
      "Phone": "+15147660546"
    },
    "geometry": {
      "type": "Point",
      "coordinates": [-73.588555, 45.456955]
    }
  }, {
    "type": "Feature",
    "properties": {
      "Name": "CLSC des Faubourgs - Parthenais",
      "Address": "2260, rue Parthenais",
      "City": "Montréal",
      "Phone": "+15145272361"
    },
    "geometry": {
      "type": "Point",
      "coordinates": [-73.559997, 45.531137]
    }
  }, {
    "type": "Feature",
    "properties": {
      "Name": "CLSC des Faubourgs - Sainte-Catherine",
      "Address": "66, rue Sainte-Catherine Est",
      "City": "Montréal",
      "Phone": "+15145272361"
    },
    "geometry": {
      "type": "Point",
      "coordinates": [-73.562985, 45.510644]
    }
  }, {
    "type": "Feature",
    "properties": {
      "Name": "CLSC des Faubourgs - Visitation",
      "Address": "1705, rue de la Visitation",
      "City": "Montréal",
      "Phone": "+15145272361"
    },
    "geometry": {
      "type": "Point",
      "coordinates": [-73.558929, 45.520964]
    }
  }, {
    "type": "Feature",
    "properties": {
      "Name": "CLSC du Plateau-Mont-Royal",
      "Address": "4625, avenue de Lorimier",
      "City": "Montréal",
      "Phone": "+15145217663"
    },
    "geometry": {
      "type": "Point",
      "coordinates": [-73.573827, 45.535945]
    }
  }, {
    "type": "Feature",
    "properties": {
      "Name": "CLSC Saint-Louis-du-Parc",
      "Address": "15, avenue du Mont-Royal Ouest",
      "City": "Montréal",
      "Phone": "+15142869657"
    },
    "geometry": {
      "type": "Point",
      "coordinates": [-73.586633, 45.519988]
    }
  }, {
    "type": "Feature",
    "properties": {
      "Name": "CLSC de Pierrefonds",
      "Address": "13800, boulevard Gouin Ouest",
      "City": "Pierrefonds",
      "Phone": "+15146262572"
    },
    "geometry": {
      "type": "Point",
      "coordinates": [-73.848584, 45.49804]
    }
  }, {
    "type": "Feature",
    "properties": {
      "Name": "CLSC du Lac-Saint-Louis",
      "Address": "180, avenue Cartier",
      "City": "Pointe-Claire",
      "Phone": "+15146974110"
    },
    "geometry": {
      "type": "Point",
      "coordinates": [-73.826987, 45.43836]
    }
  }]
}