{
	"type": "FeatureCollection",
	"features": [{
		"type": "Feature",
		"properties": {
			"Name": "CLSC des Faubourgs - Parthenais",
			"Address": "2260, rue Parthenais",
			"City": "Montréal",
			"Phone": "+1514 527‑2361"
		},
		"geometry": {
			"type": "Point",
			"coordinates": [-73.559997,
				45.531137
			]
		}
	}, {
		"type": "Feature",
		"properties": {
			"Name": "CLSC des Faubourgs - Sainte-Catherine",
			"Address": "66, rue Sainte-Catherine Est",
			"City": "Montréal",
			"Phone": "+1514 527‑2361"
		},
		"geometry": {
			"type": "Point",
			"coordinates": [-73.562985,
				45.510644
			]
		}
	}, {
		"type": "Feature",
		"properties": {
			"Name": "CLSC des Faubourgs - Visitation",
			"Address": "1705, rue de la Visitation",
			"City": "Montréal",
			"Phone": "+1514 527‑2361"
		},
		"geometry": {
			"type": "Point",
			"coordinates": [-73.558929,
				45.520964
			]
		}
	}, {
		"type": "Feature",
		"properties": {
			"Name": "CLSC du Plateau-Mont-Royal",
			"Address": "4625, avenue de Lorimier",
			"City": "Montréal",
			"Phone": "+1514 521‑7663"
		},
		"geometry": {
			"type": "Point",
			"coordinates": [-73.573827,
				45.535945
			]
		}
	}, {
		"type": "Feature",
		"properties": {
			"Name": "CLSC Saint-Louis-du-Parc",
			"Address": "15, avenue du Mont-Royal Ouest",
			"City": "Montréal",
			"Phone": "+1514 286‑9657"
		},
		"geometry": {
			"type": "Point",
			"coordinates": [-73.586633,
				45.519988
			]
		}
	}, {
		"type": "Feature",
		"properties": {
			"Name": "CLSC de La Petite-Patrie",
			"Address": "6520, rue de Saint-Vallier",
			"City": "Montréal",
			"Phone": "+1514 273‑4508"
		},
		"geometry": {
			"type": "Point",
			"coordinates": [-73.605761,
				45.535282
			]
		}
	}, {
		"type": "Feature",
		"properties": {
			"Name": "CLSC de Villeray",
			"Address": "1425, rue Jarry Est",
			"City": "Montréal",
			"Phone": "+1514 376‑4141"
		},
		"geometry": {
			"type": "Point",
			"coordinates": [-73.621077,
				45.551072
			]
		}
	}, {
		"type": "Feature",
		"properties": {
			"Name": "CLSC de Hochelaga-Maisonneuve",
			"Address": "4201, rue Ontario Est",
			"City": "Montréal",
			"Phone": "+1514 253‑2181"
		},
		"geometry": {
			"type": "Point",
			"coordinates": [-73.540741,
				45.55125
			]
		}
	}, {
		"type": "Feature",
		"properties": {
			"Name": "CLSC de Rosemont",
			"Address": "2909, rue Rachel Est",
			"City": "Montréal",
			"Phone": "+1514 524‑3541"
		},
		"geometry": {
			"type": "Point",
			"coordinates": [-73.561638,
				45.540718
			]
		}
	}, {
		"type": "Feature",
		"properties": {
			"Name": "CLSC de Côte-des-Neiges",
			"Address": "5700, chemin de la Côte-des-Neiges",
			"City": "Montréal",
			"Phone": "+1514 731‑8531"
		},
		"geometry": {
			"type": "Point",
			"coordinates": [-73.627395,
				45.498508
			]
		}
	}, {
		"type": "Feature",
		"properties": {
			"Name": "CLSC de Parc-Extension",
			"Address": "7085, rue Hutchison",
			"City": "Montréal",
			"Phone": "+1514 273‑9591"
		},
		"geometry": {
			"type": "Point",
			"coordinates": [-73.62245,
				45.529761
			]
		}
	}, {
		"type": "Feature",
		"properties": {
			"Name": "CLSC Métro",
			"Address": "1801, boulevard de Maisonneuve Ouest",
			"City": "Montréal",
			"Phone": "+1514 934‑0354"
		},
		"geometry": {
			"type": "Point",
			"coordinates": [-73.581194,
				45.494135
			]
		}
	}, {
		"type": "Feature",
		"properties": {
			"Name": "CLSC de Côte-des-Neiges",
			"Address": "1271, avenue Van Horne",
			"City": "Outremont",
			"Phone": "+1514 731‑8531"
		},
		"geometry": {
			"type": "Point",
			"coordinates": [-73.613881,
				45.521788
			]
		}
	}, {
		"type": "Feature",
		"properties": {
			"Name": "CLSC de Saint-Michel",
			"Address": "3355, rue Jarry Est",
			"City": "Montréal",
			"Phone": "+1514 722‑3000"
		},
		"geometry": {
			"type": "Point",
			"coordinates": [-73.608323,
				45.565317
			]
		}
	}]
}